<?xml version="1.0" encoding="UTF-8" ?>
<manifest>
<version major="0" minor="1"/>
<registry>
   <item key="C3_HeightMeshBaseURL" value="http://invalid.server/tile?style=17" />
   <item key="USE_APPLE_HEIGHT_MESH" value="true" />
   <item key="C3_DigitalGlobeBaseURL" value="http://invalid.server/tile?style=7" />
   <item key="USE_APPLE_DG" value="true" />
   <item key="C3_HeightMeshExtension" value="dtm" />
</registry>
<triggers>
<trigger>
   <data type="c3mesh" metaurlformat="c3h" metaurl="bundle://poles/northpole/0/0/map_0_0_0.c3h" dataurl="bundle://poles/northpole/"/>
   <shape type="sphere" latitude="1.570796326" longitude="0" altitude="0.0" radius="600000"/>
   <c3meshdata level="0"/>
</trigger>
<trigger>
   <data type="c3mesh" metaurlformat="c3h" metaurl="bundle://poles/southpole/0/0/map_0_0_0.c3h" dataurl="bundle://poles/southpole/"/>
   <shape type="sphere" latitude="-1.570796326" longitude="0" altitude="0.0" radius="600000"/>
   <c3meshdata level="0"/>
</trigger>
  <trigger region="0" source="muid" type="tour">
<tour muid="16118442400621678012" region="4" trip_nr="1"/>
<tour muid="18351802482921338004" region="5" trip_nr="1"/>
<tour muid="9827672953111667929" region="6" trip_nr="1"/>
<tour muid="17716882381624000226" region="7" trip_nr="1"/>
<tour muid="826388732277615336" region="9" trip_nr="1"/>
<tour muid="13089913346109115933" region="10" trip_nr="1"/>
<tour muid="1555780455406929851" region="11" trip_nr="1"/>
<tour muid="10054958827085458304" region="12" trip_nr="1"/>
<tour muid="14312029616879295979" region="13" trip_nr="1"/>
<tour muid="12296432638622813584" region="14" trip_nr="1"/>
<tour muid="3440579616580864183" region="15" trip_nr="1"/>
<tour muid="12675902928086892573" region="18" trip_nr="1"/>
<tour muid="5925973303254515509" region="23" trip_nr="1"/>
<tour muid="5377375150887084436" region="24" trip_nr="1"/>
<tour muid="48812406309286022" region="25" trip_nr="1"/>
<tour muid="15943796160287482500" region="30" trip_nr="1"/>
<tour muid="7425715785066774029" region="31" trip_nr="1"/>
<tour muid="4111137726369867804" region="32" trip_nr="1"/>
<tour muid="838102623566003472" region="35" trip_nr="1"/>
<tour muid="1138584149477506247" region="36" trip_nr="1"/>
<tour muid="8824590892442150586" region="38" trip_nr="1"/>
<tour muid="15824956338533968871" region="39" trip_nr="1"/>
<tour muid="17562417132368762792" region="40" trip_nr="1"/>
<tour muid="16056873924796211948" region="43" trip_nr="1"/>
<tour muid="10276109485276657318" region="44" trip_nr="1"/>
<tour muid="3350311536626935624" region="45" trip_nr="1"/>
<tour muid="7610876732946825007" region="46" trip_nr="1"/>
<tour muid="10819483050482422353" region="47" trip_nr="1"/>
<tour muid="263266650859038700" region="48" trip_nr="1"/>
<tour muid="7017433214542421879" region="50" trip_nr="1"/>
<tour muid="4322731065454946974" region="56" trip_nr="1"/>
<tour muid="14555664115510285332" region="60" trip_nr="1"/>
<tour muid="10217020895339422721" region="61" trip_nr="1"/>
<tour muid="4863379879225207845" region="64" trip_nr="1"/>
<tour muid="17533872310363701785" region="70" trip_nr="1"/>
<tour muid="7632174774306439728" region="76" trip_nr="1"/>
<tour muid="12832987102699356848" region="79" trip_nr="1"/>
<tour muid="17534611013500265927" region="84" trip_nr="1"/>
<tour muid="16665842614037863449" region="85" trip_nr="1"/>
<tour muid="14876705528545631813" region="89" trip_nr="1"/>
<tour muid="13766066201605095463" region="90" trip_nr="1"/>
<tour muid="11223442288798665119" region="91" trip_nr="1"/>
<tour muid="12559581092183205117" region="92" trip_nr="1"/>
<tour muid="10989441033118628785" region="93" trip_nr="1"/>
<tour muid="166748441558776196" region="94" trip_nr="1"/>
<tour muid="181241619967018963" region="98" trip_nr="1"/>
<tour muid="1201037006660368187" region="100" trip_nr="1"/>
<tour muid="3736367690346046006" region="101" trip_nr="1"/>
<tour muid="5982113603036670760" region="102" trip_nr="1"/>
<tour muid="11027662476521880776" region="112" trip_nr="1"/>
<tour muid="2836612203710945376" region="121" trip_nr="2"/>
<tour muid="1657240865468337132" region="123" trip_nr="1"/>
<tour muid="13593491077831154743" region="125" trip_nr="1"/>
<tour muid="6339979079197982280" region="126" trip_nr="1"/>
<tour muid="3593621544935888821" region="128" trip_nr="1"/>
<tour muid="13203738336442626179" region="130" trip_nr="1"/>
<tour muid="1254896392585842234" region="131" trip_nr="1"/>
<tour muid="17809396332536151873" region="132" trip_nr="1"/>
<tour muid="3805936806795206027" region="133" trip_nr="1"/>
<tour muid="27660252541371166" region="135" trip_nr="1"/>
<tour muid="3825137545888743813" region="136" trip_nr="1"/>
<tour muid="10243054557490427785" region="137" trip_nr="1"/>
<tour muid="9300771619197868012" region="138" trip_nr="1"/>
<tour muid="10426739477111840775" region="139" trip_nr="1"/>
<tour muid="479996818328362967" region="140" trip_nr="1"/>
<tour muid="3862359936957195812" region="143" trip_nr="1"/>
<tour muid="1864426592993979936" region="146" trip_nr="1"/>
<tour muid="1783426121075392188" region="146" trip_nr="2"/>
<tour muid="4188381435873284301" region="146" trip_nr="3"/>
<tour muid="16947639284024502318" region="147" trip_nr="1"/>
<tour muid="8696757491618441500" region="148" trip_nr="1"/>
<tour muid="8723649770558302171" region="149" trip_nr="1"/>
<tour muid="6653038168936504289" region="150" trip_nr="1"/>
<tour muid="3023693721548392318" region="152" trip_nr="1"/>
<tour muid="15936499613849172010" region="153" trip_nr="1"/>
<tour muid="18166503836206534180" region="155" trip_nr="1"/>
<tour muid="5695414336077017831" region="156" trip_nr="1"/>
<tour muid="4026493169844397369" region="157" trip_nr="1"/>
<tour muid="11757842225833683258" region="161" trip_nr="1"/>
<tour muid="108878363312483308" region="162" trip_nr="1"/>
<tour muid="6822996247843383003" region="164" trip_nr="1"/>
<tour muid="7389299458915563065" region="166" trip_nr="1"/>
<tour muid="16378064303531491359" region="167" trip_nr="1"/>
<tour muid="3042355984092737120" region="170" trip_nr="1"/>
<tour muid="14334130669715821850" region="173" trip_nr="1"/>
<tour muid="15348567109487074083" region="176" trip_nr="2"/>
<tour muid="5415870432459090115" region="178" trip_nr="2"/>
<tour muid="8981903105627648706" region="179" trip_nr="1"/>
<tour muid="8549566100449150828" region="181" trip_nr="2"/>
<tour muid="5627635705415405204" region="183" trip_nr="1"/>
<tour muid="15051783534270808580" region="185" trip_nr="1"/>
<tour muid="12547197178237557289" region="190" trip_nr="1"/>
<tour muid="4645410604957761465" region="196" trip_nr="1"/>
<tour muid="1550108269566654669" region="197" trip_nr="1"/>
<tour muid="15684075702847234165" region="202" trip_nr="1"/>
<tour muid="13917510473036574148" region="210" trip_nr="1"/>
<tour muid="15319878102305612304" region="214" trip_nr="1"/>
<tour muid="5550958171262495753" region="217" trip_nr="1"/>
<tour muid="4474160571646378435" region="224" trip_nr="1"/>
<tour muid="14982767098915094410" region="226" trip_nr="1"/>
<tour muid="11954645711863548461" region="228" trip_nr="1"/>
<tour muid="1917760255604844754" region="230" trip_nr="1"/>
<tour muid="7174127786053218176" region="231" trip_nr="1"/>
<tour muid="11490485547023050262" region="303" trip_nr="1"/>
<tour muid="10288935307443385648" region="307" trip_nr="1"/>
<tour muid="8322740022098429141" region="316" trip_nr="1"/>
<tour muid="8812774966958307911" region="318" trip_nr="1"/>
<tour muid="978077699355992154" region="321" trip_nr="1"/>
<tour muid="4492634398381644871" region="328" trip_nr="1"/>
<tour muid="547610148360095909" region="330" trip_nr="1"/>
<tour muid="16556679228086917043" region="333" trip_nr="1"/>
<tour muid="582633321019861587" region="337" trip_nr="1"/>
<tour muid="10009959424152459646" region="340" trip_nr="1"/>
<tour muid="17412664260382322216" region="346" trip_nr="1"/>
<tour muid="82501360114008559" region="354" trip_nr="1"/>
<tour muid="5052193609128172787" region="360" trip_nr="1"/>
<tour muid="13680298566908653853" region="361" trip_nr="2"/>
<tour muid="17599667515828277377" region="362" trip_nr="1"/>
<tour muid="6190102315307023311" region="367" trip_nr="1"/>
<tour muid="14373099561496939138" region="369" trip_nr="1"/>
<tour muid="12078655853372449173" region="375" trip_nr="1"/>
<tour muid="8599589526738487816" region="387" trip_nr="1"/>
<tour muid="908026320369065846" region="390" trip_nr="1"/>
<tour muid="4907825406724247717" region="392" trip_nr="1"/>
<tour muid="12710632958545092958" region="393" trip_nr="1"/>
<tour muid="531955713081365847" region="396" trip_nr="1"/>
<tour muid="14197691933169113851" region="398" trip_nr="1"/>
<tour muid="5557408872625320118" region="399" trip_nr="2"/>
<tour muid="15041451746917232606" region="400" trip_nr="2"/>
<tour muid="14927954969167210429" region="401" trip_nr="1"/>
<tour muid="667552995761122057" region="403" trip_nr="2"/>
<tour muid="13450167078830067391" region="404" trip_nr="2"/>
<tour muid="1999266205532059561" region="405" trip_nr="2"/>
<tour muid="14411146948764821426" region="406" trip_nr="2"/>
<tour muid="8681440808912264921" region="603" trip_nr="2"/>
</trigger>
<trigger altitude="46.1" latitude="0.728445473195" level="13" longitude="-1.527376944519" max_level="20" maxsize_13="132886" maxsize_14="96951" maxsize_15="126124" maxsize_16="118898" maxsize_17="104097" maxsize_18="105998" maxsize_19="110944" maxsize_20="104759" name="Chicago" priority="0" radius="63634.5" region="2" version="1002" />
<trigger altitude="-6418.4" latitude="0.591813106024" level="13" longitude="-2.059783406982" max_level="20" maxsize_13="71811" maxsize_14="101707" maxsize_15="108187" maxsize_16="116028" maxsize_17="183361" maxsize_18="132458" maxsize_19="115761" maxsize_20="114747" name="Los Angeles" priority="0" radius="101474.9" region="3" version="1008" />
<trigger altitude="2037.6" latitude="-0.590931509500" level="13" longitude="2.636820288454" max_level="20" maxsize_13="90870" maxsize_14="134929" maxsize_15="117219" maxsize_16="120334" maxsize_17="157600" maxsize_18="110186" maxsize_19="105598" maxsize_20="103253" name="Sydney" priority="0" radius="34799.7" region="4" version="1018" />
<trigger altitude="-65.3" latitude="0.795022649117" level="13" longitude="-1.285780624219" max_level="20" maxsize_13="63982" maxsize_14="105284" maxsize_15="104299" maxsize_16="106078" maxsize_17="129425" maxsize_18="112983" maxsize_19="102003" maxsize_20="86302" name="Montreal" priority="0" radius="48187.7" region="5" version="1023" />
<trigger altitude="-627.6" latitude="0.673760027882" level="13" longitude="-2.119336533374" max_level="20" maxsize_13="56069" maxsize_14="105054" maxsize_15="109735" maxsize_16="119354" maxsize_17="102848" maxsize_18="98425" maxsize_19="92631" maxsize_20="84985" name="Sacramento" priority="0" radius="26955.0" region="6" version="1002" />
<trigger altitude="3279.1" latitude="0.828944857415" level="13" longitude="-2.135364628729" max_level="20" maxsize_13="103715" maxsize_14="143287" maxsize_15="128130" maxsize_16="122617" maxsize_17="209065" maxsize_18="175397" maxsize_19="161338" maxsize_20="141669" name="Seattle" priority="0" radius="66769.2" region="7" version="1007" />
<trigger altitude="-65.0" latitude="0.449947691845" level="13" longitude="-1.399373457073" max_level="20" maxsize_13="67876" maxsize_14="90149" maxsize_15="103460" maxsize_16="116406" maxsize_17="101725" maxsize_18="97490" maxsize_19="96170" maxsize_20="109258" name="Miami" priority="0" radius="10116.5" region="8" version="1001" />
<trigger altitude="3032.0" latitude="0.629503562593" level="13" longitude="-2.007339375563" max_level="20" maxsize_13="80033" maxsize_14="91444" maxsize_15="100491" maxsize_16="107715" maxsize_17="143006" maxsize_18="125151" maxsize_19="110030" maxsize_20="99404" name="Las Vegas" priority="0" radius="56410.2" region="9" version="1009" />
<trigger altitude="1650.0" latitude="-0.660527088992" level="13" longitude="2.531027285138" max_level="20" maxsize_13="81249" maxsize_14="111656" maxsize_15="101857" maxsize_16="106503" maxsize_17="164421" maxsize_18="123867" maxsize_19="92014" maxsize_20="99666" name="Melbourne" priority="0" radius="35398.1" region="10" version="1017" />
<trigger FLYOVER_C3M_ASTC_TEXTURE="true" FLYOVER_C3M_JPEG_TEXTURE="true" FLYOVER_C3M_MESH="true" altitude="348.4" latitude="0.731004026382" level="13" longitude="0.218578927635" name="rome" priority="0" radius="26087.3" region="11" version="3002" />
<trigger altitude="573.9" latitude="0.915650957226" level="13" longitude="0.234124581064" max_level="20" maxsize_13="82473" maxsize_14="94143" maxsize_15="113683" maxsize_16="105771" maxsize_17="163593" maxsize_18="122291" maxsize_19="93731" maxsize_20="92551" name="berlin" priority="0" radius="30433.8" region="12" version="1004" />
<trigger altitude="841.5" latitude="0.704737564068" level="13" longitude="-0.065224175100" max_level="20" maxsize_13="88110" maxsize_14="114263" maxsize_15="119998" maxsize_16="123622" maxsize_17="107683" maxsize_18="103404" maxsize_19="94543" maxsize_20="108971" name="madrid" priority="0" radius="24165.1" region="13" version="1018" />
<trigger altitude="672.8" latitude="0.974142792728" level="13" longitude="0.221005734217" max_level="20" maxsize_13="34778" maxsize_14="61017" maxsize_15="94255" maxsize_16="89063" maxsize_17="89017" maxsize_18="82695" maxsize_19="83652" maxsize_20="86627" name="Copenhagen" priority="0" radius="56724.6" region="14" version="1013" />
<trigger altitude="448.9" latitude="1.035234791527" level="13" longitude="0.314565790281" max_level="20" maxsize_13="44927" maxsize_14="72919" maxsize_15="68775" maxsize_16="84420" maxsize_17="98710" maxsize_18="88373" maxsize_19="96849" maxsize_20="85674" name="stockholm" priority="0" radius="36326.0" region="15" version="1028" />
<trigger altitude="-76.3" latitude="0.522476793703" level="13" longitude="-1.573098027433" max_level="20" maxsize_13="94824" maxsize_14="118040" maxsize_15="125928" maxsize_16="137828" maxsize_17="144008" maxsize_18="129736" maxsize_19="122740" maxsize_20="108565" name="New Orleans" priority="0" radius="35383.6" region="18" version="1005" />
<trigger altitude="-253.2" latitude="0.519499460627" level="13" longitude="-1.664045474531" max_level="20" maxsize_13="79943" maxsize_14="91954" maxsize_15="115316" maxsize_16="119975" maxsize_17="99216" maxsize_18="97744" maxsize_19="104264" maxsize_20="123049" name="houston" priority="0" radius="32633.1" region="20" version="1001" />
<trigger altitude="-167.8" latitude="0.584174062802" level="13" longitude="-1.954198121724" max_level="20" maxsize_13="65615" maxsize_14="68651" maxsize_15="82892" maxsize_16="103163" maxsize_17="133242" maxsize_18="113517" maxsize_19="104667" maxsize_20="98949" name="phoenix_heli" priority="0" radius="44915.9" region="21" version="1005" />
<trigger altitude="-1714.8" latitude="0.571120545916" level="13" longitude="-2.043284146340" max_level="20" maxsize_13="65157" maxsize_14="98987" maxsize_15="111463" maxsize_16="108994" maxsize_17="101584" maxsize_18="97630" maxsize_19="105864" maxsize_20="107731" name="san_diego" priority="0" radius="34364.7" region="22" version="1005" />
<trigger altitude="337.8" latitude="0.589849530780" level="13" longitude="-1.472623781677" max_level="20" maxsize_13="117656" maxsize_14="143751" maxsize_15="138495" maxsize_16="129028" maxsize_17="170650" maxsize_18="120399" maxsize_19="111884" maxsize_20="106759" name="atlanta" priority="0" radius="24111.6" region="23" version="1013" />
<trigger altitude="-45.4" latitude="0.612643378824" level="13" longitude="-1.569642268635" max_level="20" maxsize_13="71699" maxsize_14="125633" maxsize_15="130914" maxsize_16="122135" maxsize_17="137590" maxsize_18="112776" maxsize_19="104778" maxsize_20="100753" name="memphis" priority="0" radius="38568.5" region="24" version="1007" />
<trigger altitude="1407.7" latitude="0.694828681722" level="13" longitude="-1.832417628545" max_level="20" maxsize_13="46353" maxsize_14="86466" maxsize_15="106132" maxsize_16="114590" maxsize_17="101543" maxsize_18="96543" maxsize_19="98686" maxsize_20="95238" name="denver" priority="0" radius="46408.6" region="25" version="1006" />
<trigger altitude="-87.0" latitude="0.371230373179" level="13" longitude="-2.754687799499" max_level="20" maxsize_13="69529" maxsize_14="108300" maxsize_15="119921" maxsize_16="114534" maxsize_17="100872" maxsize_18="93237" maxsize_19="90437" maxsize_20="100058" name="honolulu" priority="0" radius="10208.0" region="26" version="1003" />
<trigger altitude="938.3" latitude="0.571838169320" level="13" longitude="-1.694234831714" max_level="20" maxsize_13="71223" maxsize_14="105158" maxsize_15="108184" maxsize_16="112394" maxsize_17="98297" maxsize_18="89472" maxsize_19="85678" maxsize_20="91586" name="dallas" priority="0" radius="30280.6" region="29" version="1001" />
<trigger altitude="2.8" latitude="0.898503671165" level="13" longitude="-0.001932373931" max_level="20" maxsize_13="66462" maxsize_14="129717" maxsize_15="145963" maxsize_16="135091" maxsize_17="152710" maxsize_18="126399" maxsize_19="138434" maxsize_20="151913" name="london" priority="0" radius="40108.5" region="30" version="1016" />
<trigger altitude="545.6" latitude="0.798468861606" level="13" longitude="0.085517495949" max_level="20" maxsize_13="47018" maxsize_14="96861" maxsize_15="102764" maxsize_16="102463" maxsize_17="92871" maxsize_18="87812" maxsize_19="92103" maxsize_20="103375" name="lyon" priority="0" radius="27434.4" region="31" version="1005" />
<trigger altitude="-652.1" latitude="0.840292283218" level="13" longitude="0.200162678393" max_level="20" maxsize_13="90025" maxsize_14="108463" maxsize_15="105115" maxsize_16="104456" maxsize_17="133144" maxsize_18="100482" maxsize_19="89951" maxsize_20="97487" name="munich" priority="0" radius="35057.0" region="32" version="1010" />
<trigger altitude="86.1" latitude="0.528120437157" level="13" longitude="-1.705378763733" max_level="20" maxsize_13="62367" maxsize_14="88164" maxsize_15="102344" maxsize_16="117385" maxsize_17="153920" maxsize_18="120385" maxsize_19="100957" maxsize_20="109371" name="austin" priority="0" radius="23270.9" region="35" version="1005" />
<trigger altitude="142.6" latitude="0.723613877085" level="13" longitude="0.038720004705" max_level="20" maxsize_13="82122" maxsize_14="103661" maxsize_15="113910" maxsize_16="115412" maxsize_17="104471" maxsize_18="102070" maxsize_19="99432" maxsize_20="110775" name="barcelona" priority="0" radius="29445.2" region="36" version="1014" />
<trigger altitude="370.3" latitude="0.794733969635" level="13" longitude="0.160336416058" max_level="20" maxsize_13="59182" maxsize_14="121748" maxsize_15="116204" maxsize_16="115651" maxsize_17="168160" maxsize_18="109851" maxsize_19="93978" maxsize_20="93844" name="milan" priority="0" radius="29224.3" region="37" version="1028" />
<trigger altitude="1198.5" latitude="0.710701768553" level="13" longitude="-1.290747190422" max_level="20" maxsize_13="104256" maxsize_14="103956" maxsize_15="118518" maxsize_16="117480" maxsize_17="104242" maxsize_18="109692" maxsize_19="101438" maxsize_20="103844" name="new_york" priority="0" radius="44942.8" region="38" version="1004" />
<trigger altitude="-2184.9" latitude="0.740158281419" level="13" longitude="-1.240082372273" max_level="20" maxsize_13="61944" maxsize_14="112140" maxsize_15="114715" maxsize_16="121931" maxsize_17="181771" maxsize_18="107986" maxsize_19="110244" maxsize_20="104080" name="boston" priority="0" radius="35462.9" region="39" version="1006" />
<trigger altitude="44.0" latitude="0.890775584099" level="13" longitude="-1.990353854595" max_level="20" maxsize_13="44619" maxsize_14="84688" maxsize_15="78176" maxsize_16="86638" maxsize_17="121712" maxsize_18="96429" maxsize_19="93394" maxsize_20="93168" name="calgary" priority="0" radius="27944.5" region="40" version="1007" />
<trigger altitude="1299.4" latitude="0.697840766203" level="13" longitude="-1.311328722672" max_level="20" maxsize_13="76189" maxsize_14="122268" maxsize_15="130349" maxsize_16="119259" maxsize_17="146569" maxsize_18="117445" maxsize_19="112277" maxsize_20="110867" name="philadelphia" priority="0" radius="36205.1" region="41" version="1032" />
<trigger altitude="2686.4" latitude="0.794870830440" level="13" longitude="-2.140478593530" max_level="20" maxsize_13="64688" maxsize_14="98121" maxsize_15="112053" maxsize_16="109160" maxsize_17="160547" maxsize_18="111471" maxsize_19="107790" maxsize_20="101486" name="portland" priority="0" radius="33139.5" region="42" version="1004" />
<trigger altitude="-347.9" latitude="0.764273552072" level="13" longitude="-1.382172813788" max_level="20" maxsize_13="62938" maxsize_14="110960" maxsize_15="114816" maxsize_16="113496" maxsize_17="189788" maxsize_18="121190" maxsize_19="108669" maxsize_20="117040" name="toronto" priority="0" radius="67778.8" region="43" version="1005" />
<trigger altitude="-574.2" latitude="0.859470974218" level="13" longitude="-2.146908642450" max_level="20" maxsize_13="53070" maxsize_14="82675" maxsize_15="108319" maxsize_16="105369" maxsize_17="102493" maxsize_18="103466" maxsize_19="104028" maxsize_20="119696" name="vancouver" priority="0" radius="35150.5" region="44" version="1002" />
<trigger altitude="73.9" latitude="0.916450166998" level="13" longitude="-0.034141500622" max_level="20" maxsize_13="40365" maxsize_14="54522" maxsize_15="77547" maxsize_16="87833" maxsize_17="87839" maxsize_18="88220" maxsize_19="82998" maxsize_20="92777" name="birmingham" priority="0" radius="26783.5" region="45" version="1007" />
<trigger altitude="224.7" latitude="0.930529759756" level="13" longitude="-0.110051873319" max_level="20" maxsize_13="42205" maxsize_14="50682" maxsize_15="71783" maxsize_16="78614" maxsize_17="89078" maxsize_18="77897" maxsize_19="82985" maxsize_20="85408" name="dublin" priority="0" radius="21451.1" region="46" version="1012" />
<trigger altitude="206.2" latitude="0.933288442230" level="13" longitude="-0.044880292442" max_level="20" maxsize_13="39019" maxsize_14="56295" maxsize_15="86246" maxsize_16="88415" maxsize_17="86944" maxsize_18="88058" maxsize_19="96366" maxsize_20="101321" name="manchester" priority="0" radius="46637.5" region="47" version="1004" />
<trigger FLYOVER_C3M_ASTC_TEXTURE="true" FLYOVER_C3M_JPEG_TEXTURE="true" FLYOVER_C3M_MESH="true" altitude="598.5" latitude="0.853004721869" level="13" longitude="0.042201924781" name="paris" priority="0" radius="38586.7" region="48" version="3001" />
<trigger altitude="700.5" latitude="0.621945123740" level="13" longitude="2.439364302394" max_level="20" maxsize_13="106754" maxsize_14="141713" maxsize_15="134083" maxsize_16="118841" maxsize_17="184982" maxsize_18="108890" maxsize_19="93161" maxsize_20="91562" name="Tokyo" priority="0" radius="22516.9" region="50" version="1026" />
<trigger altitude="172.3" latitude="0.631034331355" level="13" longitude="-1.675107485325" max_level="20" maxsize_13="73609" maxsize_14="76493" maxsize_15="108940" maxsize_16="110927" maxsize_17="133235" maxsize_18="101430" maxsize_19="93825" maxsize_20="94704" name="tulsa" priority="0" radius="10552.4" region="56" version="1014" />
<trigger altitude="97.8" latitude="0.749164614388" level="13" longitude="-1.376356080238" max_level="20" maxsize_13="52379" maxsize_14="77084" maxsize_15="100991" maxsize_16="112465" maxsize_17="95898" maxsize_18="101762" maxsize_19="109618" maxsize_20="117344" name="buffalo" priority="0" radius="25252.9" region="57" version="1001" />
<trigger altitude="28.4" latitude="0.693909690117" level="13" longitude="-1.504416994274" max_level="20" maxsize_13="58011" maxsize_14="105506" maxsize_15="115354" maxsize_16="106027" maxsize_17="118107" maxsize_18="99653" maxsize_19="98557" maxsize_20="95235" name="indianapolis" priority="0" radius="22024.6" region="60" version="1003" />
<trigger altitude="-290.5" latitude="0.784585648633" level="13" longitude="-1.626050887073" max_level="20" maxsize_13="62470" maxsize_14="81437" maxsize_15="106441" maxsize_16="109282" maxsize_17="134943" maxsize_18="102729" maxsize_19="97005" maxsize_20="97815" name="minneapolis" priority="0" radius="23830.0" region="61" version="1010" />
<trigger altitude="81.0" latitude="0.974778053245" level="13" longitude="-0.074402599970" max_level="20" maxsize_13="47314" maxsize_14="71644" maxsize_15="84156" maxsize_16="76596" maxsize_17="84213" maxsize_18="94690" maxsize_19="79497" maxsize_20="90627" name="glasgow" priority="0" radius="14530.4" region="64" version="1010" />
<trigger altitude="891.7" latitude="0.685505634473" level="13" longitude="-1.336093248536" max_level="20" maxsize_13="73759" maxsize_14="91681" maxsize_15="110604" maxsize_16="122683" maxsize_17="108847" maxsize_18="104303" maxsize_19="108788" maxsize_20="100759" name="baltimore" priority="0" radius="21758.4" region="70" version="1004" />
<trigger altitude="-190.9" latitude="0.888954450076" level="13" longitude="0.121545074755" max_level="20" maxsize_13="59894" maxsize_14="81433" maxsize_15="105059" maxsize_16="100434" maxsize_17="124060" maxsize_18="101461" maxsize_19="96935" maxsize_20="91108" name="cologne" priority="0" radius="19188.3" region="76" version="1008" />
<trigger altitude="42.7" latitude="0.688292502627" level="13" longitude="-0.007290420802" max_level="20" maxsize_13="52581" maxsize_14="102178" maxsize_15="115504" maxsize_16="109391" maxsize_17="106192" maxsize_18="99332" maxsize_19="100096" maxsize_20="111626" name="Valencia" priority="0" radius="20261.5" region="79" version="1004" />
<trigger altitude="196.7" latitude="0.514486300091" level="13" longitude="-1.718860087409" max_level="20" maxsize_13="59343" maxsize_14="90497" maxsize_15="103645" maxsize_16="108223" maxsize_17="96709" maxsize_18="92918" maxsize_19="89938" maxsize_20="96709" name="san_antonio" priority="0" radius="40456.7" region="84" version="1001" />
<trigger altitude="-77.3" latitude="0.631048342433" level="13" longitude="-1.513176206777" max_level="20" maxsize_13="75297" maxsize_14="108044" maxsize_15="117988" maxsize_16="126432" maxsize_17="133619" maxsize_18="124280" maxsize_19="120425" maxsize_20="105939" name="nashville" priority="0" radius="32723.2" region="85" version="1007" />
<trigger altitude="-16.3" latitude="0.730191017362" level="13" longitude="-1.246357468436" max_level="20" maxsize_13="67598" maxsize_14="70211" maxsize_15="96938" maxsize_16="110457" maxsize_17="145046" maxsize_18="98738" maxsize_19="98328" maxsize_20="97729" name="providence" priority="0" radius="12341.1" region="89" version="1002" />
<trigger altitude="-320.6" latitude="0.662884759239" level="13" longitude="-2.116789593977" max_level="20" maxsize_13="49875" maxsize_14="52323" maxsize_15="92171" maxsize_16="100316" maxsize_17="120882" maxsize_18="120417" maxsize_19="104452" maxsize_20="94043" name="stockton" priority="0" radius="21039.3" region="90" version="1002" />
<trigger altitude="79.6" latitude="0.762273333129" level="13" longitude="-1.226715039118" max_level="20" maxsize_13="60389" maxsize_14="78625" maxsize_15="106780" maxsize_16="111808" maxsize_17="110036" maxsize_18="106639" maxsize_19="108795" maxsize_20="102952" name="portland_me" priority="0" radius="16396.0" region="91" version="1002" />
<trigger altitude="-1153.3" latitude="0.657232019799" level="13" longitude="-2.111447651353" max_level="20" maxsize_13="54690" maxsize_14="53327" maxsize_15="106461" maxsize_16="105176" maxsize_17="134780" maxsize_18="112989" maxsize_19="108176" maxsize_20="100423" name="modesto" priority="0" radius="18455.1" region="92" version="1004" />
<trigger altitude="196.9" latitude="0.776598032313" level="13" longitude="-1.536306255281" max_level="20" maxsize_13="47233" maxsize_14="58244" maxsize_15="101656" maxsize_16="106350" maxsize_17="115480" maxsize_18="99823" maxsize_19="103174" maxsize_20="89851" name="greenbay" priority="0" radius="20104.8" region="93" version="1003" />
<trigger altitude="-69.7" latitude="0.723898216000" level="13" longitude="-1.426484832638" max_level="20" maxsize_13="83984" maxsize_14="108395" maxsize_15="115860" maxsize_16="122944" maxsize_17="130403" maxsize_18="106946" maxsize_19="99512" maxsize_20="99911" name="cleveland" priority="0" radius="24915.9" region="94" version="1005" />
<trigger altitude="-456.0" latitude="0.746133491223" level="13" longitude="-1.288576606014" max_level="20" maxsize_13="72132" maxsize_14="113691" maxsize_15="117184" maxsize_16="112537" maxsize_17="126699" maxsize_18="110463" maxsize_19="110652" maxsize_20="112145" name="albany" priority="0" radius="28276.5" region="95" version="1003" />
<trigger altitude="-284.1" latitude="-0.643391548610" level="13" longitude="3.052573749002" max_level="20" maxsize_13="50451" maxsize_14="86537" maxsize_15="105053" maxsize_16="112850" maxsize_17="98214" maxsize_18="105312" maxsize_19="105914" maxsize_20="116355" name="Auckland" priority="0" radius="38470.3" region="98" version="1003" />
<trigger altitude="266.0" latitude="-0.719518508547" level="13" longitude="3.051801765456" max_level="20" maxsize_13="55318" maxsize_14="74149" maxsize_15="97606" maxsize_16="100358" maxsize_17="142283" maxsize_18="115248" maxsize_19="113134" maxsize_20="113662" name="wellington" priority="0" radius="33196.2" region="100" version="1011" />
<trigger altitude="-206.7" latitude="0.617055610537" level="13" longitude="-2.078073642587" max_level="20" maxsize_13="66376" maxsize_14="52788" maxsize_15="73110" maxsize_16="96696" maxsize_17="107533" maxsize_18="113107" maxsize_19="93295" maxsize_20="83576" name="bakersfield" priority="0" radius="23817.1" region="101" version="1007" />
<trigger altitude="-1289.0" latitude="0.642288410317" level="13" longitude="-2.090230459653" max_level="20" maxsize_13="50335" maxsize_14="50814" maxsize_15="85843" maxsize_16="104313" maxsize_17="153137" maxsize_18="111963" maxsize_19="97472" maxsize_20="89547" name="fresno" priority="0" radius="27759.9" region="102" version="1003" />
<trigger altitude="2274.1" latitude="-0.594696803585" level="13" longitude="0.323648019447" max_level="20" maxsize_13="55250" maxsize_14="82309" maxsize_15="102721" maxsize_16="110682" maxsize_17="96590" maxsize_18="100287" maxsize_19="97519" maxsize_20="98522" name="cape town" priority="0" radius="51939.7" region="112" version="1001" />
<trigger altitude="883.3" latitude="0.784102362524" level="13" longitude="-2.147224976471" max_level="20" maxsize_13="65193" maxsize_14="64671" maxsize_15="100983" maxsize_16="103650" maxsize_17="124166" maxsize_18="104552" maxsize_19="101689" maxsize_20="113190" name="salem" priority="0" radius="20594.8" region="121" version="1002" />
<trigger altitude="190.6" latitude="0.669207450081" level="13" longitude="-0.008818124498" max_level="20" maxsize_13="62194" maxsize_14="91944" maxsize_15="122518" maxsize_16="111513" maxsize_17="97737" maxsize_18="93308" maxsize_19="98145" maxsize_20="104090" name="Alicante" priority="0" radius="28752.4" region="122" version="1011" />
<trigger altitude="174.2" latitude="0.751126068474" level="13" longitude="-1.535126291931" max_level="20" maxsize_13="56653" maxsize_14="83076" maxsize_15="111859" maxsize_16="116377" maxsize_17="130384" maxsize_18="95572" maxsize_19="91388" maxsize_20="88183" name="milwaukee" priority="0" radius="19547.2" region="123" version="1013" />
<trigger altitude="-289.2" latitude="-0.759854107328" level="13" longitude="3.013173665742" max_level="20" maxsize_13="41605" maxsize_14="54041" maxsize_15="79395" maxsize_16="90953" maxsize_17="90280" maxsize_18="84608" maxsize_19="91147" maxsize_20="96272" name="Christchurch" priority="0" radius="21131.9" region="124" version="1001" />
<trigger altitude="54.9" latitude="1.019300698885" level="13" longitude="0.272283409838" max_level="20" maxsize_13="35604" maxsize_14="50934" maxsize_15="56332" maxsize_16="84568" maxsize_17="89698" maxsize_18="85297" maxsize_19="87200" maxsize_20="89755" name="Linkoping" priority="0" radius="10718.0" region="125" version="1065" />
<trigger FLYOVER_C3M_JPEG_TEXTURE="true" FLYOVER_C3M_MESH="true" FLYOVER_C3M_ASTC_TEXTURE="true" altitude="-2623.5" latitude="-0.558566479532" level="13" longitude="2.021010479824" name="Perth" priority="0" radius="50431.5" region="126" version="3008" />
<trigger altitude="1919.4" latitude="0.765559172060" level="13" longitude="-1.806683119299" max_level="20" maxsize_13="46071" maxsize_14="59694" maxsize_15="88639" maxsize_16="107771" maxsize_17="110255" maxsize_18="120341" maxsize_19="119546" maxsize_20="111025" name="mount_rushmore" priority="0" radius="14869.9" region="127" version="1003" />
<trigger altitude="21.6" latitude="0.782879549103" level="13" longitude="-0.010748618960" max_level="20" maxsize_13="42558" maxsize_14="77803" maxsize_15="93349" maxsize_16="96093" maxsize_17="91225" maxsize_18="90343" maxsize_19="89186" maxsize_20="94410" name="Bordeaux" priority="0" radius="23558.8" region="128" version="1008" />
<trigger altitude="-254.0" latitude="0.630768448105" level="13" longitude="-0.094735389337" max_level="20" maxsize_13="59948" maxsize_14="70870" maxsize_15="105494" maxsize_16="107755" maxsize_17="100817" maxsize_18="93949" maxsize_19="90434" maxsize_20="95497" name="Gibraltar" priority="0" radius="16229.1" region="129" version="1010" />
<trigger altitude="1451.8" latitude="0.717602634134" level="13" longitude="-1.829235275886" max_level="20" maxsize_13="40474" maxsize_14="44376" maxsize_15="68691" maxsize_16="89371" maxsize_17="85455" maxsize_18="82160" maxsize_19="86399" maxsize_20="93909" name="Cheyenne" priority="0" radius="16751.7" region="130" version="1001" />
<trigger altitude="119.7" latitude="0.939002772093" level="13" longitude="-0.027222330258" max_level="20" maxsize_13="38768" maxsize_14="51751" maxsize_15="76392" maxsize_16="81869" maxsize_17="82083" maxsize_18="75034" maxsize_19="79762" maxsize_20="84735" name="Leeds" priority="0" radius="13605.3" region="131" version="1002" />
<trigger altitude="815.4" latitude="0.792879273178" level="13" longitude="0.076294963534" max_level="20" maxsize_13="56119" maxsize_14="89853" maxsize_15="104432" maxsize_16="115875" maxsize_17="108415" maxsize_18="108617" maxsize_19="117444" maxsize_20="135490" name="saint etienne" priority="0" radius="19034.5" region="132" version="1003" />
<trigger altitude="188.3" latitude="0.652209732719" level="13" longitude="-0.103952563901" max_level="20" maxsize_13="58060" maxsize_14="106167" maxsize_15="120299" maxsize_16="126518" maxsize_17="110221" maxsize_18="111501" maxsize_19="117806" maxsize_20="136300" name="sevilla" priority="0" radius="36101.4" region="133" version="1004" />
<trigger altitude="339.5" latitude="0.924531375624" level="13" longitude="-0.164883957063" max_level="20" maxsize_13="30626" maxsize_14="27114" maxsize_15="29933" maxsize_16="35797" maxsize_17="49564" maxsize_18="58706" maxsize_19="63322" maxsize_20="68399" name="cliffs of moher" priority="0" radius="10380.9" region="134" version="1001" />
<trigger altitude="-127.5" latitude="0.757042839514" level="13" longitude="0.093887920920" max_level="20" maxsize_13="53968" maxsize_14="100239" maxsize_15="112775" maxsize_16="106563" maxsize_17="100231" maxsize_18="96633" maxsize_19="94374" maxsize_20="92083" name="marseille" priority="0" radius="31325.0" region="135" version="1002" />
<trigger altitude="835.8" latitude="0.751926963984" level="13" longitude="0.216880038038" max_level="20" maxsize_13="53227" maxsize_14="86569" maxsize_15="109955" maxsize_16="110381" maxsize_17="102033" maxsize_18="97409" maxsize_19="97995" maxsize_20="104380" name="perugia" priority="0" radius="28489.8" region="136" version="1002" />
<trigger altitude="-482.5" latitude="0.760422361016" level="13" longitude="0.233591112300" max_level="20" maxsize_13="49124" maxsize_14="74205" maxsize_15="117175" maxsize_16="111706" maxsize_17="97722" maxsize_18="100130" maxsize_19="93242" maxsize_20="94233" name="Ancona" priority="0" radius="25808.8" region="137" version="1002" />
<trigger altitude="659.8" latitude="1.050819069918" level="13" longitude="0.434680820177" max_level="20" maxsize_13="39934" maxsize_14="58567" maxsize_15="52615" maxsize_16="73913" maxsize_17="91692" maxsize_18="76727" maxsize_19="82545" maxsize_20="78411" name="helsinki" priority="0" radius="28924.2" region="138" version="1002" />
<trigger altitude="-200.7" latitude="0.661110339133" level="13" longitude="-0.083616040130" max_level="20" maxsize_13="70502" maxsize_14="119447" maxsize_15="118046" maxsize_16="120634" maxsize_17="110318" maxsize_18="113949" maxsize_19="114111" maxsize_20="123138" name="cordoba" priority="0" radius="21328.4" region="139" version="1001" />
<trigger altitude="393.3" latitude="0.769461306791" level="13" longitude="0.052923810427" max_level="20" maxsize_13="52185" maxsize_14="59812" maxsize_15="91413" maxsize_16="101798" maxsize_17="97204" maxsize_18="85337" maxsize_19="84012" maxsize_20="82575" name="Millau" priority="0" radius="10389.3" region="140" version="1004" />
<trigger altitude="95.7" latitude="0.755050935293" level="13" longitude="0.115814674827" max_level="20" maxsize_13="67271" maxsize_14="54978" maxsize_15="86996" maxsize_16="100939" maxsize_17="92751" maxsize_18="96038" maxsize_19="88199" maxsize_20="94975" name="saint_tropez" priority="0" radius="8606.4" region="143" version="1001" />
<trigger altitude="-1489.7" latitude="0.649780626564" level="13" longitude="-1.971162977992" max_level="20" maxsize_13="82601" maxsize_14="83742" maxsize_15="91303" maxsize_16="107873" maxsize_17="224359" maxsize_18="161287" maxsize_19="117172" maxsize_20="6740" name="Zion" priority="0" radius="43522.3" region="144" version="1016" />
<trigger altitude="113.0" latitude="0.893488073754" level="13" longitude="-0.031073359987" max_level="20" maxsize_13="42909" maxsize_14="39838" maxsize_15="61210" maxsize_16="60822" maxsize_17="60631" maxsize_18="70504" maxsize_19="75806" maxsize_20="75106" name="stonehenge" priority="0" radius="9213.8" region="145" version="1003" />
<trigger altitude="1889.2" latitude="0.656509400323" level="13" longitude="-2.132687675824" max_level="20" maxsize_13="83098" maxsize_14="111801" maxsize_15="125452" maxsize_16="147790" maxsize_17="125921" maxsize_18="121498" maxsize_19="117636" maxsize_20="117277" name="Bay Area" priority="0" radius="68470.2" region="146" version="1040" />
<trigger altitude="590.1" latitude="0.716886037748" level="13" longitude="0.292718345052" max_level="20" maxsize_13="51043" maxsize_14="122441" maxsize_15="118139" maxsize_16="120456" maxsize_17="116189" maxsize_18="107100" maxsize_19="101060" maxsize_20="114475" name="bari" priority="0" radius="25179.1" region="147" version="1009" />
<trigger altitude="-44.2" latitude="0.530430346060" level="13" longitude="-1.588830683177" max_level="20" maxsize_13="95254" maxsize_14="123159" maxsize_15="126964" maxsize_16="134405" maxsize_17="169901" maxsize_18="131643" maxsize_19="113620" maxsize_20="105179" name="Baton Rouge" priority="0" radius="33011.4" region="148" version="1009" />
<trigger altitude="-213.9" latitude="0.952972048419" level="13" longitude="-0.103661916983" max_level="20" maxsize_13="39153" maxsize_14="43368" maxsize_15="54255" maxsize_16="71819" maxsize_17="77013" maxsize_18="79824" maxsize_19="78566" maxsize_20="82536" name="Belfast" priority="0" radius="20860.0" region="149" version="1003" />
<trigger altitude="735.6" latitude="0.760841376717" level="13" longitude="-2.032259622533" max_level="20" maxsize_13="43056" maxsize_14="53359" maxsize_15="90033" maxsize_16="107793" maxsize_17="99500" maxsize_18="92730" maxsize_19="89395" maxsize_20="99706" name="Boise" priority="0" radius="38879.6" region="150" version="1001" />
<trigger altitude="1817.3" latitude="0.829013445705" level="13" longitude="0.333839436673" max_level="20" maxsize_13="71056" maxsize_14="114801" maxsize_15="125255" maxsize_16="118373" maxsize_17="171001" maxsize_18="125513" maxsize_19="115025" maxsize_20="117457" name="Budapest" priority="0" radius="51271.7" region="152" version="1003" />
<trigger altitude="-220.6" latitude="-0.616188909242" level="13" longitude="2.602281346551" max_level="20" maxsize_13="64375" maxsize_14="83666" maxsize_15="103733" maxsize_16="103809" maxsize_17="138950" maxsize_18="106680" maxsize_19="97456" maxsize_20="109197" name="Canberra" priority="0" radius="29118.1" region="153" version="1010" />
<trigger altitude="49.8" latitude="0.904942720768" level="13" longitude="-0.146535576104" max_level="20" maxsize_13="45138" maxsize_14="42776" maxsize_15="54952" maxsize_16="83048" maxsize_17="91631" maxsize_18="96181" maxsize_19="89054" maxsize_20="84319" name="Cork" priority="0" radius="24610.7" region="155" version="1004" />
<trigger altitude="-31.0" latitude="-0.800395098192" level="13" longitude="2.976640302196" max_level="20" maxsize_13="43838" maxsize_14="47558" maxsize_15="76446" maxsize_16="102635" maxsize_17="128193" maxsize_18="106362" maxsize_19="108111" maxsize_20="104874" name="Dunedin" priority="0" radius="26144.3" region="156" version="1002" />
<trigger altitude="894.3" latitude="0.554662070967" level="13" longitude="-2.035590720324" max_level="20" maxsize_13="65459" maxsize_14="60646" maxsize_15="65616" maxsize_16="92602" maxsize_17="93311" maxsize_18="92749" maxsize_19="87434" maxsize_20="90093" name="Ensenada" priority="0" radius="27336.0" region="157" version="1001" />
<trigger altitude="40.7" latitude="0.760619209840" level="13" longitude="0.067498354010" max_level="20" maxsize_13="57274" maxsize_14="67007" maxsize_15="108774" maxsize_16="106915" maxsize_17="124807" maxsize_18="102023" maxsize_19="92947" maxsize_20="100665" name="Montpellier" priority="0" radius="23225.6" region="162" version="1001" />
<trigger altitude="302.3" latitude="-0.720694035393" level="13" longitude="3.022977447720" max_level="20" maxsize_13="56881" maxsize_14="65524" maxsize_15="87008" maxsize_16="103220" maxsize_17="116368" maxsize_18="116177" maxsize_19="118028" maxsize_20="135298" name="Nelson" priority="0" radius="21654.0" region="164" version="1012" />
<trigger altitude="-194.7" latitude="0.761541700104" level="13" longitude="0.125215709173" max_level="20" maxsize_13="58855" maxsize_14="103607" maxsize_15="112775" maxsize_16="108199" maxsize_17="160372" maxsize_18="130249" maxsize_19="105534" maxsize_20="108941" name="Nice" priority="0" radius="36818.3" region="166" version="1004" />
<trigger altitude="-38.8" latitude="0.764517694733" level="13" longitude="0.077026017722" max_level="20" maxsize_13="44188" maxsize_14="53969" maxsize_15="108867" maxsize_16="103894" maxsize_17="123750" maxsize_18="88319" maxsize_19="86644" maxsize_20="90848" name="Nimes" priority="0" radius="16842.7" region="167" version="1001" />
<trigger altitude="-332.7" latitude="0.905232987644" level="13" longitude="0.077447404809" max_level="20" maxsize_13="43005" maxsize_14="52452" maxsize_15="79915" maxsize_16="94062" maxsize_17="120227" maxsize_18="133942" maxsize_19="99622" maxsize_20="91142" name="Rotterdam" priority="0" radius="42913.2" region="170" version="1004" />
<trigger altitude="-495.4" latitude="0.786229728952" level="13" longitude="0.133029763869" max_level="20" maxsize_13="60119" maxsize_14="119539" maxsize_15="114206" maxsize_16="108375" maxsize_17="146667" maxsize_18="103368" maxsize_19="105654" maxsize_20="108592" name="Torino" priority="0" radius="27473.0" region="173" version="1003" />
<trigger altitude="17.5" latitude="0.643072492697" level="13" longitude="-0.041802882120" max_level="20" maxsize_13="45214" maxsize_14="81998" maxsize_15="106140" maxsize_16="108655" maxsize_17="97131" maxsize_18="86489" maxsize_19="79250" maxsize_20="76769" name="Almeria" priority="0" radius="16038.1" region="176" version="1007" />
<trigger altitude="49.9" latitude="0.756445190882" level="13" longitude="0.056375837082" max_level="20" maxsize_13="39360" maxsize_14="62263" maxsize_15="103022" maxsize_16="106233" maxsize_17="98614" maxsize_18="88735" maxsize_19="80719" maxsize_20="95607" name="Beziers" priority="0" radius="13173.6" region="178" version="1002" />
<trigger altitude="56.0" latitude="0.759230096640" level="13" longitude="-0.026462343644" max_level="20" maxsize_13="54133" maxsize_14="91283" maxsize_15="104825" maxsize_16="100187" maxsize_17="102821" maxsize_18="89417" maxsize_19="84517" maxsize_20="89878" name="Biarritz" priority="0" radius="12742.0" region="179" version="1003" />
<trigger altitude="617.2" latitude="0.799260012269" level="13" longitude="0.054456394182" max_level="20" maxsize_13="49172" maxsize_14="56714" maxsize_15="103198" maxsize_16="98080" maxsize_17="102142" maxsize_18="103368" maxsize_19="98200" maxsize_20="105531" name="Clermont-Ferrand" priority="0" radius="24907.6" region="181" version="1002" />
<trigger altitude="637.3" latitude="0.820941480767" level="13" longitude="0.269957677884" max_level="20" maxsize_13="55116" maxsize_14="80385" maxsize_15="122873" maxsize_16="112717" maxsize_17="171466" maxsize_18="118740" maxsize_19="96596" maxsize_20="101047" name="Graz" priority="0" radius="18949.8" region="183" version="1001" />
<trigger altitude="976.0" latitude="0.842354974364" level="13" longitude="0.249291042018" max_level="20" maxsize_13="50974" maxsize_14="78579" maxsize_15="97019" maxsize_16="90779" maxsize_17="195875" maxsize_18="116378" maxsize_19="97187" maxsize_20="94857" name="Linz" priority="0" radius="18338.8" region="185" version="1002" />
<trigger altitude="-106.4" latitude="0.744968198890" level="13" longitude="0.051048495708" max_level="20" maxsize_13="54149" maxsize_14="50197" maxsize_15="102403" maxsize_16="103133" maxsize_17="103428" maxsize_18="97886" maxsize_19="86880" maxsize_20="93915" name="Perpignan" priority="0" radius="16949.2" region="190" version="1002" />
<trigger altitude="3598.5" latitude="0.658149793904" level="13" longitude="-2.088745377263" max_level="20" maxsize_13="105403" maxsize_14="134201" maxsize_15="129623" maxsize_16="117836" maxsize_17="263121" maxsize_18="139950" maxsize_19="108752" maxsize_20="41507" name="Yosemite" priority="0" radius="32697.0" region="195" version="1005" />
<trigger altitude="-468.5" latitude="0.436813579159" level="13" longitude="-1.351037272883" max_level="20" maxsize_13="51205" maxsize_14="53896" maxsize_15="82163" maxsize_16="95816" maxsize_17="105482" maxsize_18="104317" maxsize_19="101724" maxsize_20="117597" name="Nassau" priority="0" radius="23443.4" region="196" version="1004" />
<trigger altitude="133.1" latitude="-0.521466795159" level="13" longitude="0.541097062237" max_level="20" maxsize_13="130492" maxsize_14="89683" maxsize_15="103171" maxsize_16="115796" maxsize_17="135368" maxsize_18="110016" maxsize_19="123231" maxsize_20="123091" name="Durban" priority="0" radius="27292.4" region="197" version="1009" />
<trigger altitude="-327.4" latitude="0.705396198176" level="13" longitude="0.261952073187" max_level="20" maxsize_13="58186" maxsize_14="40480" maxsize_15="53093" maxsize_16="59764" maxsize_17="88137" maxsize_18="81402" maxsize_19="76084" maxsize_20="79029" name="Paestum" priority="0" radius="7554.4" region="198" version="1006" />
<trigger altitude="2546.6" latitude="0.674143361990" level="13" longitude="-1.912137826010" max_level="20" maxsize_13="72464" maxsize_14="91391" maxsize_15="91366" maxsize_16="90330" maxsize_17="112616" maxsize_18="119283" maxsize_19="108599" maxsize_20="101125" name="Arches" priority="0" radius="38347.7" region="200" version="1002" />
<trigger altitude="85.0" latitude="0.768922397107" level="13" longitude="0.084369224760" max_level="20" maxsize_13="32696" maxsize_14="47257" maxsize_15="40623" maxsize_16="76351" maxsize_17="95819" maxsize_18="82235" maxsize_19="76906" maxsize_20="85114" name="Chateauneuf du pape" priority="0" radius="5364.0" region="201" version="1001" />
<trigger altitude="107.7" latitude="0.831142776378" level="13" longitude="0.026461984615" max_level="20" maxsize_13="61890" maxsize_14="109023" maxsize_15="117393" maxsize_16="100297" maxsize_17="102683" maxsize_18="91266" maxsize_19="88668" maxsize_20="92192" name="chambord" priority="0" radius="7235.8" region="202" version="1005" />
<trigger altitude="19.0" latitude="0.766993700271" level="13" longitude="0.079384488374" max_level="20" maxsize_13="43337" maxsize_14="43333" maxsize_15="67133" maxsize_16="94042" maxsize_17="91172" maxsize_18="84290" maxsize_19="83343" maxsize_20="87047" name="remoulins" priority="0" radius="7987.0" region="203" version="1002" />
<trigger altitude="49.2" latitude="0.849052969231" level="13" longitude="-0.026462343897" max_level="20" maxsize_13="34847" maxsize_14="29659" maxsize_15="30482" maxsize_16="33189" maxsize_17="71368" maxsize_18="72060" maxsize_19="74301" maxsize_20="69844" name="Mont Saint Michel" priority="0" radius="9673.0" region="205" version="1006" />
<trigger altitude="1604.9" latitude="0.611388606466" level="13" longitude="-1.937417772739" max_level="20" maxsize_13="25604" maxsize_14="31118" maxsize_15="34501" maxsize_16="40899" maxsize_17="57099" maxsize_18="71140" maxsize_19="85308" maxsize_20="73179" name="meteor_crater" priority="0" radius="6800.3" region="206" version="1001" />
<trigger altitude="937.9" latitude="0.778299576225" level="13" longitude="-1.827353157709" max_level="20" maxsize_13="47233" maxsize_14="63130" maxsize_15="76269" maxsize_16="109337" maxsize_17="116714" maxsize_18="107826" maxsize_19="105664" maxsize_20="92239" name="Devils Tower" priority="0" radius="7231.7" region="207" version="1001" />
<trigger altitude="918.5" latitude="0.628600619007" level="13" longitude="-1.985777371304" max_level="20" maxsize_13="78436" maxsize_14="77417" maxsize_15="76888" maxsize_16="85524" maxsize_17="98621" maxsize_18="86426" maxsize_19="84487" maxsize_20="79352" name="grand canyon" priority="0" radius="18812.8" region="208" version="1003" />
<trigger altitude="-432.6" latitude="0.980249152952" level="13" longitude="0.177753872077" max_level="20" maxsize_13="36866" maxsize_14="44776" maxsize_15="51457" maxsize_16="75370" maxsize_17="75765" maxsize_18="72151" maxsize_19="75226" maxsize_20="72410" name="Aarhus" priority="0" radius="16636.2" region="210" version="1002" />
<trigger altitude="-83.7" latitude="0.614273271343" level="13" longitude="-1.777257091452" max_level="20" maxsize_13="46199" maxsize_14="45692" maxsize_15="65372" maxsize_16="109400" maxsize_17="103363" maxsize_18="88855" maxsize_19="83628" maxsize_20="84123" name="Amarillo" priority="0" radius="22585.5" region="214" version="1001" />
<trigger altitude="-1488.5" latitude="0.321520111562" level="13" longitude="-1.165489715194" max_level="20" maxsize_13="73849" maxsize_14="91979" maxsize_15="100220" maxsize_16="104973" maxsize_17="117693" maxsize_18="121776" maxsize_19="118541" maxsize_20="118728" name="Arecibo" priority="0" radius="17158.8" region="217" version="1004" />
<trigger altitude="-229.0" latitude="0.725083205449" level="13" longitude="-0.146895659728" max_level="20" maxsize_13="61341" maxsize_14="80733" maxsize_15="99019" maxsize_16="96838" maxsize_17="144668" maxsize_18="110393" maxsize_19="88990" maxsize_20="98493" name="Braga" priority="0" radius="15451.6" region="224" version="1005" />
<trigger altitude="938.5" latitude="0.858515551739" level="13" longitude="0.289941401905" max_level="20" maxsize_13="40217" maxsize_14="82265" maxsize_15="91560" maxsize_16="90136" maxsize_17="144156" maxsize_18="81860" maxsize_19="77568" maxsize_20="76106" name="Brno" priority="0" radius="19046.2" region="226" version="1006" />
<trigger altitude="3.0" latitude="0.637819185110" level="13" longitude="-0.107044344606" max_level="20" maxsize_13="68325" maxsize_14="95650" maxsize_15="104269" maxsize_16="107306" maxsize_17="117487" maxsize_18="99729" maxsize_19="84314" maxsize_20="89800" name="Cadiz" priority="0" radius="34499.0" region="228" version="1020" />
<trigger altitude="148.5" latitude="0.701842627061" level="13" longitude="-0.147264510280" max_level="20" maxsize_13="60320" maxsize_14="77548" maxsize_15="109163" maxsize_16="104354" maxsize_17="116734" maxsize_18="104053" maxsize_19="96862" maxsize_20="102723" name="Coimbra" priority="0" radius="11664.6" region="230" version="1008" />
<trigger altitude="-371.7" latitude="1.005573730389" level="13" longitude="0.319235800763" max_level="20" maxsize_13="35525" maxsize_14="35147" maxsize_15="48126" maxsize_16="72236" maxsize_17="87279" maxsize_18="75449" maxsize_19="74488" maxsize_20="73565" name="Visby" priority="0" radius="15116.1" region="231" version="1004" />
<trigger altitude="239.9" latitude="0.825690281913" level="13" longitude="0.088566273709" max_level="20" maxsize_13="37206" maxsize_14="50064" maxsize_15="102817" maxsize_16="98940" maxsize_17="117527" maxsize_18="87807" maxsize_19="81820" maxsize_20="90263" name="Dijon" priority="0" radius="16216.5" region="303" version="1002" />
<trigger altitude="147.1" latitude="0.976477715836" level="13" longitude="-0.057142019323" max_level="20" maxsize_13="36306" maxsize_14="47606" maxsize_15="50810" maxsize_16="49921" maxsize_17="128022" maxsize_18="97603" maxsize_19="69181" maxsize_20="64451" name="Edinburgh" priority="0" radius="15374.3" region="307" version="1003" />
<trigger altitude="277.1" latitude="1.006858898360" level="13" longitude="0.208850922581" max_level="20" maxsize_13="41197" maxsize_14="57074" maxsize_15="88579" maxsize_16="92211" maxsize_17="149939" maxsize_18="117569" maxsize_19="92428" maxsize_20="93775" name="Gothenburg" priority="0" radius="32159.2" region="316" version="1002" />
<trigger altitude="1145.7" latitude="0.360125363026" level="13" longitude="-1.804806019300" max_level="20" maxsize_13="96733" maxsize_14="116099" maxsize_15="121172" maxsize_16="128091" maxsize_17="155393" maxsize_18="134770" maxsize_19="117307" maxsize_20="117619" name="Guadalajara" priority="0" radius="33627.4" region="318" version="1004" />
<trigger altitude="101.2" latitude="0.934420752557" level="13" longitude="0.174049415749" max_level="20" maxsize_13="57579" maxsize_14="109928" maxsize_15="108679" maxsize_16="99870" maxsize_17="117091" maxsize_18="98015" maxsize_19="88894" maxsize_20="80940" name="Hamburg" priority="0" radius="34275.9" region="321" version="1003" />
<trigger altitude="502.8" latitude="0.855280500338" level="13" longitude="0.146517969157" max_level="20" maxsize_13="53374" maxsize_14="83109" maxsize_15="105653" maxsize_16="105774" maxsize_17="124297" maxsize_18="101654" maxsize_19="90072" maxsize_20="91897" name="Karlsruhe" priority="0" radius="23128.4" region="328" version="1007" />
<trigger altitude="-275.3" latitude="0.948723386184" level="13" longitude="0.177476508540" max_level="20" maxsize_13="35192" maxsize_14="48867" maxsize_15="75384" maxsize_16="89497" maxsize_17="89691" maxsize_18="81914" maxsize_19="80423" maxsize_20="79689" name="Kiel" priority="0" radius="19693.6" region="330" version="1006" />
<trigger altitude="-558.3" latitude="0.971023647250" level="13" longitude="0.226942438660" max_level="20" maxsize_13="30039" maxsize_14="52635" maxsize_15="59780" maxsize_16="77253" maxsize_17="73246" maxsize_18="68946" maxsize_19="72895" maxsize_20="75935" name="Malmo" priority="0" radius="24420.8" region="337" version="1005" />
<trigger altitude="-1285.2" latitude="0.319311083003" level="13" longitude="-1.172435591369" max_level="20" maxsize_13="71475" maxsize_14="88680" maxsize_15="104672" maxsize_16="115406" maxsize_17="153539" maxsize_18="119406" maxsize_19="120907" maxsize_20="123966" name="Mayaguez" priority="0" radius="34782.9" region="340" version="1002" />
<trigger altitude="603.2" latitude="0.966632312301" level="13" longitude="0.181399081097" max_level="20" maxsize_13="35984" maxsize_14="37744" maxsize_15="57852" maxsize_16="75087" maxsize_17="72661" maxsize_18="71568" maxsize_19="76155" maxsize_20="73269" name="Odense" priority="0" radius="14416.3" region="346" version="1001" />
<trigger altitude="671.8" latitude="0.314486841611" level="13" longitude="-1.162376792093" max_level="20" maxsize_13="60690" maxsize_14="80625" maxsize_15="105976" maxsize_16="114908" maxsize_17="161334" maxsize_18="111553" maxsize_19="114551" maxsize_20="105068" name="Ponce" priority="0" radius="24323.6" region="354" version="1008" />
<trigger altitude="354.0" latitude="0.769840085715" level="13" longitude="-1.800414628391" max_level="20" maxsize_13="61190" maxsize_14="64778" maxsize_15="113623" maxsize_16="118193" maxsize_17="117456" maxsize_18="110766" maxsize_19="112795" maxsize_20="116472" name="Rapid City" priority="0" radius="20962.0" region="360" version="1001" />
<trigger altitude="178.6" latitude="0.859870955970" level="13" longitude="0.070945974715" max_level="20" maxsize_13="37441" maxsize_14="45905" maxsize_15="84118" maxsize_16="87938" maxsize_17="85717" maxsize_18="79300" maxsize_19="76256" maxsize_20="78939" name="Reims" priority="0" radius="15154.6" region="361" version="1007" />
<trigger altitude="17.9" latitude="0.839382312063" level="13" longitude="-0.029149014207" max_level="20" maxsize_13="43066" maxsize_14="56696" maxsize_15="100870" maxsize_16="98377" maxsize_17="89131" maxsize_18="82076" maxsize_19="88359" maxsize_20="92461" name="Rennes" priority="0" radius="13070.8" region="362" version="1002" />
<trigger altitude="-3006.4" latitude="0.320136954405" level="13" longitude="-1.155243901855" max_level="20" maxsize_13="77640" maxsize_14="92826" maxsize_15="108457" maxsize_16="115346" maxsize_17="196551" maxsize_18="132548" maxsize_19="129454" maxsize_20="122177" name="San Juan" priority="0" radius="42788.7" region="367" version="1002" />
<trigger altitude="-1785.1" latitude="0.752793881358" level="13" longitude="2.465700957693" max_level="20" maxsize_13="49638" maxsize_14="112129" maxsize_15="108148" maxsize_16="113799" maxsize_17="111424" maxsize_18="114270" maxsize_19="114179" maxsize_20="119538" name="Sapporo" priority="0" radius="38358.9" region="369" version="1004" />
<trigger altitude="227.1" latitude="0.848028642666" level="13" longitude="0.134416358070" max_level="20" maxsize_13="37874" maxsize_14="77777" maxsize_15="97954" maxsize_16="97307" maxsize_17="106359" maxsize_18="96511" maxsize_19="90597" maxsize_20="93880" name="Strasbourg" priority="0" radius="20405.5" region="375" version="1004" />
<trigger altitude="-125.8" latitude="0.791283652199" level="13" longitude="0.214615688591" max_level="20" maxsize_13="48604" maxsize_14="65650" maxsize_15="115885" maxsize_16="105274" maxsize_17="103241" maxsize_18="93313" maxsize_19="86685" maxsize_20="80318" name="Venezia" priority="0" radius="28154.6" region="387" version="1004" />
<trigger altitude="68.1" latitude="0.766716635431" level="13" longitude="0.084371469476" max_level="20" maxsize_13="52427" maxsize_14="51536" maxsize_15="101634" maxsize_16="104159" maxsize_17="98934" maxsize_18="88656" maxsize_19="88068" maxsize_20="87771" name="Avignon" priority="0" radius="13492.7" region="390" version="1005" />
<trigger altitude="1728.4" latitude="0.670996253494" level="13" longitude="-1.837708836591" max_level="20" maxsize_13="64571" maxsize_14="77923" maxsize_15="78030" maxsize_16="98537" maxsize_17="123653" maxsize_18="91599" maxsize_19="102297" maxsize_20="89104" name="Royal Gorge" priority="0" radius="9214.7" region="391" version="1005" />
<trigger altitude="383.3" latitude="0.781526883134" level="13" longitude="0.164137712840" max_level="20" maxsize_13="46881" maxsize_14="46311" maxsize_15="63994" maxsize_16="105745" maxsize_17="119060" maxsize_18="108814" maxsize_19="95569" maxsize_20="105589" name="Bobbio" priority="0" radius="5578.6" region="392" version="1003" />
<trigger altitude="-54.6" latitude="0.454087321360" level="13" longitude="-1.943553733330" max_level="20" maxsize_13="44246" maxsize_14="52271" maxsize_15="58301" maxsize_16="98595" maxsize_17="103074" maxsize_18="103047" maxsize_19="92721" maxsize_20="100821" name="Loreto" priority="0" radius="9062.2" region="393" version="1006" />
<trigger altitude="34.1" latitude="0.861385561834" level="13" longitude="-0.014957247127" max_level="20" maxsize_13="40112" maxsize_14="36123" maxsize_15="47728" maxsize_16="65218" maxsize_17="77568" maxsize_18="79152" maxsize_19="83816" maxsize_20="87208" name="Omaha beach" priority="0" radius="10392.3" region="394" version="1004" />
<trigger altitude="111.4" latitude="0.825957919847" level="13" longitude="0.018792079541" max_level="20" maxsize_13="34586" maxsize_14="44296" maxsize_15="51793" maxsize_16="73106" maxsize_17="98418" maxsize_18="83549" maxsize_19="83952" maxsize_20="88099" name=" Chenonceaux" priority="0" radius="7239.8" region="395" version="1002" />
<trigger altitude="9.6" latitude="0.978210653653" level="13" longitude="0.222047858702" max_level="20" maxsize_13="37786" maxsize_14="32957" maxsize_15="50361" maxsize_16="66164" maxsize_17="93228" maxsize_18="83185" maxsize_19="74005" maxsize_20="73768" name="Helsingborg" priority="0" radius="15548.9" region="396" version="1005" />
<trigger altitude="61.1" latitude="0.796651385764" level="13" longitude="0.205553680599" max_level="20" maxsize_13="32122" maxsize_14="48542" maxsize_15="59545" maxsize_16="96830" maxsize_17="88503" maxsize_18="80743" maxsize_19="79073" maxsize_20="92233" name="Cittadella" priority="0" radius="5601.0" region="397" version="1001" />
<trigger altitude="-142.1" latitude="0.688629877752" level="13" longitude="-0.111200958142" max_level="20" maxsize_13="44445" maxsize_14="81462" maxsize_15="115955" maxsize_16="109646" maxsize_17="100138" maxsize_18="93654" maxsize_19="83287" maxsize_20="92559" name="Caceres" priority="0" radius="12697.1" region="398" version="1002" />
<trigger altitude="12.1" latitude="0.649790499819" level="13" longitude="-0.120802606263" max_level="20" maxsize_13="54366" maxsize_14="84070" maxsize_15="129596" maxsize_16="111716" maxsize_17="103030" maxsize_18="92317" maxsize_19="87092" maxsize_20="91021" name="Huelva" priority="0" radius="15946.1" region="399" version="1002" />
<trigger altitude="214.0" latitude="0.678773286287" level="13" longitude="-0.121597478117" max_level="20" maxsize_13="39879" maxsize_14="75002" maxsize_15="102327" maxsize_16="99558" maxsize_17="93732" maxsize_18="84850" maxsize_19="86858" maxsize_20="81895" name="Badajoz" priority="0" radius="15297.6" region="403" version="1002" />
<trigger altitude="1767.2" latitude="0.432823156488" level="13" longitude="-1.874851319140" max_level="20" maxsize_13="55782" maxsize_14="73943" maxsize_15="96829" maxsize_16="102279" maxsize_17="125968" maxsize_18="102294" maxsize_19="93541" maxsize_20="95503" name="Culican" priority="0" radius="24594.4" region="404" version="1005" />
<trigger altitude="33.8" latitude="0.837323738482" level="13" longitude="0.004217754208" max_level="20" maxsize_13="71422" maxsize_14="87987" maxsize_15="97388" maxsize_16="95225" maxsize_17="111327" maxsize_18="98285" maxsize_19="88589" maxsize_20="82222" name="Le Mans" priority="0" radius="16373.5" region="406" version="1004" />
<trigger altitude="2287.5" latitude="0.343550227013" level="13" longitude="-1.725708130555" max_level="20" maxsize_13="60155" maxsize_14="58281" maxsize_15="68253" maxsize_16="102822" maxsize_17="103082" maxsize_18="96993" maxsize_19="95039" maxsize_20="107877" name="Teotihuacan" priority="0" radius="13310.6" region="407" version="1005" />
<trigger altitude="-20.3" latitude="0.361186297460" level="13" longitude="-1.545868751742" max_level="20" maxsize_13="55612" maxsize_14="56199" maxsize_15="84230" maxsize_16="95252" maxsize_17="133323" maxsize_18="99056" maxsize_19="96615" maxsize_20="107377" name="Chichen Itza" priority="0" radius="9858.6" region="602" version="1004" />
<trigger altitude="3.0" latitude="0.937863405300" level="13" longitude="-0.006139964106" max_level="20" maxsize_13="28990" maxsize_14="32785" maxsize_15="45415" maxsize_16="71051" maxsize_17="78681" maxsize_18="68916" maxsize_19="69019" maxsize_20="71984" name="Hull" priority="0" radius="20259.8" region="603" version="1001" />
</triggers>
</manifest>